{"Aloha":{"title":"Aloha","lat":45.49417,"lng":-122.86694,"byline":"Aloha is a community of 54,000 people (2020) in Oregon, under 10 miles (16 km) to the west of Portland (Oregon).","edges":["Hillsboro (Oregon)","Forest Grove","Oregon Coast","Tillamook","Lincoln City","Cannon Beach","Beaverton","Portland (Oregon)","Oregon","Mount Hood","Mount Hood and Columbia Gorge"]},"Alonissos":{"title":"Alonissos","lat":39.21044,"lng":23.91483,"byline":"Alonnisos or Alonissos (population 2,750 in 2011) is the least touristed island in the Sporades Islands.","edges":["Pteleos","Skiathos"]},"Alor Archipelago":{"title":"Alor Archipelago","lat":-8.25,"lng":124.75,"byline":"Alor Archipelago is an island group in Nusa Tenggara, Indonesia.","edges":["Flores (Indonesia)","Solor Archipelago"]},"Alor Setar":{"title":"Alor Setar","lat":6.1167,"lng":100.3667,"byline":"Alor Setar is the state capital of Kedah, on the west coast of Peninsular Malaysia.","edges":["Penang","Hat Yai","Bukit Kayu Hitam","Butterworth","Kangar","Kuala Perlis","Kulim","Padang Besar (Thailand)","Perlis"]},"Alotau":{"title":"Alotau","lat":-10.316666666667,"lng":150.43333333333,"byline":"Alotau is the provincial capital of Milne Bay, Papua New Guinea.","edges":["Trobriand Islands","Louisiade Archipelago"]},"Alor Gajah":{"title":"Alor Gajah","lat":2.377057,"lng":102.217645,"byline":"Alor Gajah is a town in Alor Gajah District, Melaka, Malaysia.","edges":["Malacca"]},"Alona Beach":{"title":"Alona Beach","lat":9.548611,"lng":123.770833,"byline":"Alona Beach is on Panglao Island in Bohol province, Philippines.","edges":["Danao Beach","Bolod and Libaong","Panglao Town"]}}