{"Cabarete":{"title":"Cabarete","lat":19.751111,"lng":-70.408333,"byline":"Cabarete is a city in Dominican Republic.","edges":["Sosúa","Puerto Plata"]},"Cable Beach":{"title":"Cable Beach","lat":25.0667,"lng":-77.4,"byline":"Cable Beach is a popular tourist resort on the northern coast of New Providence, about halfway between Nassau and the airport.","edges":["Nassau"]},"Cabo de Gata-Níjar Natural Park":{"title":"Cabo de Gata-Níjar Natural Park","lat":36.7833,"lng":-2.1,"byline":"Cabo de Gata-Níjar Natural Park is in the Almería province in the Spanish region of Andalucia.","edges":["Almería","Culturally significant landscapes in Almería"]},"Cabo de la Vela":{"title":"Cabo de la Vela","lat":12.1978,"lng":-72.1472,"byline":"Cabo de la Vela is a fishing village in La Guajira in northern Colombia.","edges":["Riohacha","Santa Marta"]},"Cabo de Santo Agostinho":{"title":"Cabo de Santo Agostinho","lat":-8.2869444444444,"lng":-35.035,"byline":"Cabo de Santo Agostinho is a city in Pernambuco, Brazil.","edges":["Recife","Olinda","Porto de Galinhas"]},"Cabo Frio":{"title":"Cabo Frio","lat":-22.878889,"lng":-42.018889,"byline":"Cabo Frio is a city in the State of Rio de Janeiro in Southeast Brazil","edges":["Arraial do Cabo","Araruama","Armação dos Búzios","Niterói","Petrópolis","Cachoeiras de Macacu"]},"Cabo Froward":{"title":"Cabo Froward","lat":-53.933333333333,"lng":-71.333333333333,"byline":"Cabo Froward (Cape Froward) is the southernmost point of the South American mainland.","edges":["Punta Arenas"]},"Cabo Polonio":{"title":"Cabo Polonio","lat":-34.3975,"lng":-53.789167,"byline":"Cabo Polonio is a village in the Atlantic Coast region of Uruguay.","edges":["Punta del Diablo","Central Interior (Uruguay)","Punta del Este","Rocha"]},"Cabo San Lucas":{"title":"Cabo San Lucas","lat":22.889722,"lng":-109.915556,"byline":"Cabo San Lucas is a city at the southern tip of Baja California Sur, Mexico.","edges":["San José del Cabo","Todos Santos","La Paz (Mexico)"]},"Cabanatuan":{"title":"Cabanatuan","lat":15.483333,"lng":120.966667,"byline":"Cabanatuan is a city of over 327,000 people (2020) in Nueva Ecija in the Philippines.","edges":["Baler","Angeles","Manila","Solano (Nueva Vizcaya)"]},"Caballococha":{"title":"Caballococha","lat":-3.91,"lng":-70.52,"byline":"Caballococha is in the Peruvian Amazon.","edges":["Leticia"]},"Caboclos core":{"title":"Caboclos core","lat":-24.4331,"lng":-48.5859,"byline":"Caboclos core is one of the four cores of Alto Ribeira State Touristic Park (PETAR), a state park in São Paulo state, Brazil.","edges":["Santana core"]},"Cabo Rojo (Puerto Rico)":{"title":"Cabo Rojo (Puerto Rico)","lat":18.0866,"lng":-67.1458,"byline":"Cabo Rojo, named after the red-colored limestone cliffs on its coast, is a city and municipality of Puerto Rico located in the Porta del Sol tourism region.","edges":["San Germán"]},"Cabañeros National Park":{"title":"Cabañeros National Park","lat":39.3959,"lng":-4.4865,"byline":"Cabañeros National Park is a national park in Castile-La Mancha of Spain, between the provinces of Toledo and Ciudad Real.","edges":["Toledo","Madrid"]}}