{"Cuamba":{"title":"Cuamba","lat":-14.82,"lng":36.548611111111,"byline":"Cuamba is a city in Niassa province, in north-west Mozambique.","edges":["Nampula"]},"Cua Ong":{"title":"Cua Ong","lat":21.0313,"lng":107.3649,"byline":"Cửa Ông (pronounced \"kwa-eng\") is a town in Halong Bay, in northern Vietnam.","edges":["Cai Rong","Quan Lạn"]},"Cuatro Ciénegas":{"title":"Cuatro Ciénegas","lat":26.9858,"lng":-102.06667,"byline":"Cuatrociénegas (Four marshes) is a desert oasis in northern Mexico.","edges":["Monclova","Monterrey","Saltillo","Parras de la Fuente","San Pedro de las Colonias","Melchor Múzquiz"]},"Cuajinicuilapa":{"title":"Cuajinicuilapa","lat":16.47,"lng":-98.41,"byline":"Cuajinicuilapa is a town in Guerrero, Mexico.","edges":["Acapulco","Zihuatanejo","Ixtapa"]},"Cuautla":{"title":"Cuautla","lat":18.8124,"lng":-98.9521,"byline":"Cuautla is a small city of about 157,000 people (2020) in the Central Mexico state of Morelos.","edges":["Zacualpan de Amilpas","Cuernavaca"]}}