{"Fribourg":{"title":"Fribourg","lat":46.8,"lng":7.15,"byline":"Fribourg is a city in Switzerland that is also the canton's capital and economic centre.","edges":["Berne","Gruyères","Basel","Neuchatel","Murten","Yverdon","Zurich"]},"Friedrichshafen":{"title":"Friedrichshafen","lat":47.654167,"lng":9.479167,"byline":"Friedrichshafen  is a city at the northeastern corner of Lake Constance (Bodensee), near the lake's widest point in the German federal-state of Baden-Württemberg.","edges":["Lindau","Eastern Switzerland","Pfullendorf","Tettnang"]},"Friesland":{"title":"Friesland","lat":53.13606,"lng":5.59479,"byline":"It is known for its unique language and culture.","edges":["Achterhoek","Groningen (province)","North Holland Peninsula","Leeuwarden","North Holland","Overijssel","Schiermonnikoog"]},"Frigiliana":{"title":"Frigiliana","lat":36.7833,"lng":-3.9,"byline":"Frigiliana is a mountain town in Andalucia, Spain.","edges":["Nerja","Málaga","Vélez-Málaga"]},"Frinton-on-Sea":{"title":"Frinton-on-Sea","lat":51.8327,"lng":1.2452,"byline":"Frinton-on-Sea is a small seaside town in the Tendring district of Essex.","edges":["Clacton","Felixstowe","Colchester","Ipswich (England)","Harwich (England)"]},"Frisian Lakes":{"title":"Frisian Lakes","lat":52.97139,"lng":5.68405,"byline":"While the Frisian Lakes (Dutch: Friese meren, West Frisian: Fryske marren) are not well known among foreigners, the locals flock to this tourist area in great numbers.","edges":["Leeuwarden","Heerenveen","Noordoostpolder","Weerribben-Wieden National Park","Enkhuizen"]},"Fritch":{"title":"Fritch","lat":35.63972,"lng":-101.60333,"byline":"Fritch is a city in the High Plains region of Texas.","edges":["Amarillo","Borger","Pampa"]},"Friuli-Venezia Giulia":{"title":"Friuli-Venezia Giulia","lat":46.1,"lng":13.12,"byline":"Friuli-Venezia Giulia is an autonomous region of Italy, the country's most northeasterly region, on the borders with Austria and Slovenia.","edges":["Veneto","Trentino-Alto Adige","Austria","Slovenia"]},"Friedberg (Hesse)":{"title":"Friedberg (Hesse)","lat":50.335278,"lng":8.755,"byline":"Friedberg is a charming medieval town dating to the 12th or 13th century in North Hesse.","edges":["Bad Nauheim"]}}