{"General Santos":{"title":"General Santos","lat":6.116667,"lng":125.1667,"byline":"General Santos City or \"GenSan\" is in the province of South Cotabato in the Philippines.","edges":["Davao","Valencia (Bukidnon)","Isulan"]},"Genesee County (New York)":{"title":"Genesee County (New York)","lat":43.006,"lng":-78.177,"byline":"Genesee County is in the Niagara Frontier region of New York.","edges":["Buffalo","Orleans County (New York)"]},"Geneseo":{"title":"Geneseo","lat":42.795833333333,"lng":-77.813611111111,"byline":"Geneseo is a village of 8,000 people (2020) in the Finger Lakes region of New York.","edges":["Letchworth State Park"]},"Geneva":{"title":"Geneva","lat":46.2,"lng":6.15,"byline":"Geneva (French: Genève, German: Genf), Switzerland's second-most populous city and the largest French-speaking city in Switzerland, is one of the world's major centres of international diplomacy, having served as the site of the headquarters of the International Committee of the Red Cross since its foundation in 1863.","edges":["Annecy","Annemasse","Biel","Bourg-Saint-Maurice","Lavaux","Lake Geneva","Montreux","Hermance","Lausanne","Gruyères","Chamonix","Evian","Turin","Lyon","Paris","Haute-Savoie","Isère","Les Gets","Greater Lyon","Solothurn","Saint-Gervais-les-Bains","Swiss Alps","Valais","Val-d'Isère","Vaud","Bourgogne-Franche-Comté"]},"Gengenbach":{"title":"Gengenbach","lat":48.404167,"lng":8.015278,"byline":"Gengenbach is an historic town delightfully set in the Kinzigtal of the Black Forest (Schwarzwald) and boasting romantic half timbered houses in narrow streets in the style of the Romantic Road (Romantischestraße).","edges":["Black Forest","Baden-Baden","Europa-Park","Freiburg","Grand Est","Strasbourg","Lake Constance","Switzerland"]},"Gennadi":{"title":"Gennadi","lat":36.024,"lng":27.908333,"byline":"Gennadi is a little village at the south of Rhodes island.","edges":["Theologos"]},"Genoa":{"title":"Genoa","lat":44.411111,"lng":8.932778,"byline":"Genoa (Italian: Genova, Ligurian: Zena) is a historic port city in northern Italy, the capital of the Liguria region.","edges":["Corsica","Cinque Terre","Rapallo","Portofino","La Spezia","French Riviera","Monaco","Moneglia","Pisa","Tuscany","Seborga"]},"Genting Highlands":{"title":"Genting Highlands","lat":3.42368,"lng":101.79335,"byline":"Genting Highlands is in Pahang, Malaysia which is famous for having Malaysia's only legal casinos, as well as theme parks, shopping malls and hotels.","edges":["Bukit Tinggi","Kuala Lumpur","Fraser's Hill","Kuala Gandah","Kuantan","Negeri Sembilan","Petaling Jaya","Raub"]},"Gensingen":{"title":"Gensingen","lat":49.8957,"lng":7.9267,"byline":"Gensingen is a village of 400 people (2018) in the Naheland.","edges":["Bad Kreuznach","Gau-Algesheim"]},"Geneva-on-the-Lake":{"title":"Geneva-on-the-Lake","lat":41.8605,"lng":-80.9504,"byline":"Geneva-on-the-Lake is a village in Ashtabula County, Ohio.","edges":["Ashtabula","Conneaut"]}}