{"Gobabis":{"title":"Gobabis","lat":-22.45,"lng":18.9667,"byline":"Gobabis is a town of 19,000 people (2011) in Namibia.","edges":["Namibia","Windhoek","Botswana"]},"Gobi":{"title":"Gobi","lat":45.213,"lng":102.34863,"byline":"Gobi or Govi is a region in Mongolia that covers the Gobi Desert in Mongolia.","edges":["Elsen Tasarkhai","Ulaanbaatar"]},"Gobi Gurvan Saikhan National Park":{"title":"Gobi Gurvan Saikhan National Park","lat":43.802729,"lng":101.589663,"byline":"Gobi Gurvan Saikhan National Park is in Mongolia.","edges":["Elsen Tasarkhai"]},"Gobichettipalayam":{"title":"Gobichettipalayam","lat":11.4536,"lng":77.4383,"byline":"Gobichettipalayam (also known as Gobi) is a town and municipality in Erode District, Tamil Nadu.","edges":["Chamarajanagar (district)","Mysore (district)","Ooty","Valparai","Kodaikanal","Coimbatore"]},"Goblin Valley State Park":{"title":"Goblin Valley State Park","lat":38.57426,"lng":-110.70675,"byline":"Goblin Valley State Park is a Utah State Park on the edge of the San Rafael Swell in Eastern Utah.","edges":["Capitol Reef National Park","Hanksville"]}}