{"Lagoa":{"title":"Lagoa","lat":37.134722,"lng":-8.452778,"byline":"Lagoa is a municipality in the Algarve region of southern Portugal.","edges":["Albufeira","Monchique","Portimão"]},"Lagoa do Carro":{"title":"Lagoa do Carro","lat":-7.845,"lng":-35.32,"byline":"Lagoa do Carro is a city in Pernambuco, Brazil.","edges":["Caruaru","Tracunhaém","Recife","Pernambuco","Olinda","Igarassu","Porto de Galinhas"]},"Lago Agrio":{"title":"Lago Agrio","lat":-0.059444444444444,"lng":-77.150555555556,"byline":"Lago Agrio or Nueva Loja is a city in the Amazon region of Ecuador.","edges":["Cuyabeno Wildlife Reserve","San Miguel (Colombia)"]},"Lago Puelo":{"title":"Lago Puelo","lat":-42.0667,"lng":-71.6167,"byline":"Lago Puelo is a town in Chubut, Argentina.","edges":["El Bolsón","Los Alerces National Park"]},"Lagorce":{"title":"Lagorce","lat":44.4486,"lng":4.4181,"byline":"Lagorce is a little village in a relatively large commune, near Vallon Pont d'Arc in the Ardèche département, in the south of France.","edges":["Orgnac l'Aven","Avignon"]},"Lagos City":{"title":"Lagos City","lat":6.4412,"lng":3.418,"byline":"Lagos (Yoruba: Èkó) is the most populous city in Nigeria, spreading out across two main islands and onto the mainland.","edges":["Benin City","Badagry","Amuwo-Odofin","Ile Ife","Yelwa","Ilorin","Ikeja","Akure","Abeokuta","Ilesa","Isolo","Esiẹ","Ojo","Ifo","Epe (Nigeria)","Ijebu Ode","Ketu","Yaba","Ojuelegba","Magodo","Oshodi","Kosofe","Itire","Imesi-ile","Gbongan","Agbara","Kaiama","Aran-Orin","Lafiagi","Omupo","Ijara Isin","Ilala","Omuo","Iyin Ekiti"]},"Lagos (Portugal)":{"title":"Lagos (Portugal)","lat":37.153122,"lng":-8.736181,"byline":"It is dominated by up to 50 metre high limestone and sandstone cliffs.","edges":["Albufeira","Faro","Monchique","Silves","Portimão","Sagres","Loulé"]},"Laguna":{"title":"Laguna","lat":14.1667,"lng":121.3333,"byline":"Laguna is a province in the Calabarzon region of the island of Luzon in the Philippines.","edges":["Cavite","Tagaytay","Batangas","Taal Volcano","Quezon (province)","Metro Manila"]},"Laguna Beach":{"title":"Laguna Beach","lat":33.5314,"lng":-117.7692,"byline":"Laguna Beach is a resort-residential community (population about 23,000 in 2018) along the Pacific coast in South Orange County in Southern California.","edges":["Aliso Viejo","Riverside County","San Bernardino County","San Diego County"]},"Laguna Cuicocha":{"title":"Laguna Cuicocha","lat":0.3,"lng":-78.35,"byline":"Laguna Cuicocha is a crater lake in Andean Highlands region of Ecuador.","edges":["Ibarra"]},"Laguna de Apoyo":{"title":"Laguna de Apoyo","lat":11.922,"lng":-86.029,"byline":"Laguna de Apoyo is a nature reserve in the Capital Region of Nicaragua.","edges":["Managua","Masaya"]},"Laguna Hills":{"title":"Laguna Hills","lat":33.599722,"lng":-117.699444,"byline":"Laguna Hills is a city in Orange County in Southern California.","edges":["Aliso Viejo"]},"Laguna Miramar":{"title":"Laguna Miramar","lat":16.393489,"lng":-91.28813,"byline":"Laguna Miramar is in the state of Chiapas in Mexico.","edges":["Comitán","Ocosingo","San Cristóbal de las Casas","Toniná"]},"Laguna Quilotoa":{"title":"Laguna Quilotoa","lat":-0.86119444444444,"lng":-78.897286111111,"byline":"Laguna Quilotoa is the highlight of the Quilotoa Loop, 14 km north of Zumbahua.","edges":["Latacunga","Zumbahua"]},"Laguna San Rafael National Park":{"title":"Laguna San Rafael National Park","lat":-47,"lng":-74,"byline":"Laguna San Rafael National Park is a national park on the Pacific coast of Patagonia in Chile.","edges":["Puerto Rio Tranquilo"]},"Lages":{"title":"Lages","lat":-27.815833,"lng":-50.325833,"byline":"Lages is in Santa Catarina in Brazil.","edges":["Curitibanos"]},"Lagosa":{"title":"Lagosa","lat":-5.97523,"lng":29.85541,"byline":"Lagosa is a small village in Northwest Tanzania, on the eastern shore of Lake Tanganyika.","edges":["Mahale Mountains"]},"Lagos State":{"title":"Lagos State","lat":6.583333,"lng":3.75,"byline":"Lagos State is a state in South West Nigeria.","edges":["Ondo State","Edo State","Kwara State","Ebonyi State"]},"Lagunas de Montebello National Park":{"title":"Lagunas de Montebello National Park","lat":16.0987,"lng":-91.6732,"byline":"Lagunas de Montebello National Park is in Chiapas in the southern part of Mexico, near the border with Guatemala.","edges":["Comitán","San Cristóbal de las Casas","Tuxtla Gutiérrez","Reforma Agraria"]},"Lagoas de Cufada Natural Park":{"title":"Lagoas de Cufada Natural Park","lat":11.71006,"lng":-15.07942,"byline":"Lagoas de Cufada Natural Park is in Guinea-Bissau.","edges":["Buba"]},"Lagunas de Chacahua National Park":{"title":"Lagunas de Chacahua National Park","lat":15.967103,"lng":-97.686831,"byline":"Lagunas de Chacahua National Park (Parque Nacional de Lagunas de Chacahua) is on the Pacific coast of the Oaxaca State in Mexico, about 54 km west of Puerto Escondido, near a village called Zapotalito.","edges":["Puerto Escondido","Juquila"]}}