{"Leoben":{"title":"Leoben","lat":47.381667,"lng":15.097222,"byline":"Leoben is a town of about 25,000 inhabitants (2018).","edges":["Graz","Schladming","Semmering","Vienna","Liezen","Kapfenberg"]},"Leominster (Massachusetts)":{"title":"Leominster (Massachusetts)","lat":42.525,"lng":-71.760278,"byline":"Leominster is a town in Massachusetts.","edges":["Fitchburg","Worcester (Massachusetts)","Boston","New Hampshire","Vermont"]},"Leonora":{"title":"Leonora","lat":-28.88,"lng":121.33,"byline":"Leonora is a town in the Goldfields-Esperance region of Western Australia.","edges":["Kalgoorlie-Boulder","Menzies","Western Australia"]},"Leonardo da Vinci-Fiumicino Airport":{"title":"Leonardo da Vinci-Fiumicino Airport","lat":41.7935,"lng":12.2518,"byline":"Leonardo da Vinci-Fiumicino Airport is in the Lazio region of Italy.","edges":["Fiumicino","Ostia"]},"Leominster (England)":{"title":"Leominster (England)","lat":52.2282,"lng":-2.7385,"byline":"Leominster (pronounced as Lemster) is a town in Herefordshire, England.","edges":["Hereford","Presteigne","Ludlow (England)","Kington"]},"Leongatha":{"title":"Leongatha","lat":-38.483333,"lng":145.95,"byline":"Leongatha is in Gippsland, 135 kilometres south-east of Melbourne.","edges":["Wonthaggi","Fish Creek (Victoria)","Wilsons Promontory National Park"]}}