{"Locarno":{"title":"Locarno","lat":46.1667,"lng":8.8,"byline":"Locarno is a city at the northern end of Lake Maggiore in Switzerland.","edges":["Bellinzona","Cannobio","Ascona","Verzasca Valley","Lugano","Tenero","Valais","Varese","Campione d'Italia"]},"Loch Lomond and The Trossachs National Park":{"title":"Loch Lomond and The Trossachs National Park","lat":56.1662,"lng":-4.40826,"byline":"Loch Lomond and The Trossachs National Park straddles between Argyll and Bute to the west and Stirlingshire to the east.","edges":["Glasgow"]},"Loch Ness":{"title":"Loch Ness","lat":57.3,"lng":-4.45,"byline":"Loch Ness is a lake or loch which runs for 23 miles (37 km) along the fault line of the Great Glen in the Scottish Highlands.","edges":["Fort William"]},"Lochristi":{"title":"Lochristi","lat":51.1,"lng":3.8333,"byline":"Lochristi is a residential town of 22,000 inhabitants in East Flanders, known for its horticulture.","edges":["Ghent"]},"Lockport":{"title":"Lockport","lat":43.1697,"lng":-78.6911,"byline":"Lockport is a city in the Niagara Frontier of New York.","edges":["Buffalo","Niagara Falls","Orleans County (New York)"]},"Locorotondo":{"title":"Locorotondo","lat":40.75,"lng":17.3333,"byline":"Locorotondo is a town in the province of Bari (BA) in the Italian region of Apulia (Puglia), Italy.","edges":["Alberobello","Martina Franca"]},"Lochem":{"title":"Lochem","lat":52.16,"lng":6.41,"byline":"Lochem is a city of 34,000 people (2019) in the Achterhoek, the region in the east of the Dutch province of Gelderland.","edges":["Achterhoek","Zutphen","Doetinchem","Oost Gelre","Overijssel","Deventer","Enschede","Hengelo","Berkelland"]}}