{"Mena (Arkansas)":{"title":"Mena (Arkansas)","lat":34.582222,"lng":-94.239167,"byline":"Mena is a town in Arkansas.","edges":["Broken Bow (Oklahoma)","Fort Smith","Heavener","Hugo","McAlester","Talihina","Oklahoma","Arkansas","Muse","Poteau","Wilburton","Wister"]},"Menaggio":{"title":"Menaggio","lat":46.0167,"lng":9.2333,"byline":"Menaggio is a village on Lake Como in Italy.","edges":["Bellagio","Tremezzo","Varenna"]},"Mendi":{"title":"Mendi","lat":-6.1477777777778,"lng":143.65722222222,"byline":"Mendi is the capital of the Southern Highlands province in the Highlands region of Papua New Guinea.","edges":["Port Moresby"]},"Mendips":{"title":"Mendips","lat":51.3,"lng":-2.73,"byline":"The Mendips are a range of hills in northern Somerset in the south-west of the United Kingdom.","edges":["Bristol","Glastonbury","Bath","Weston-super-Mare","Cheddar","Bridgwater","Wells"]},"Mendocino County":{"title":"Mendocino County","lat":39.43,"lng":-123.43,"byline":"Mendocino County borders the Pacific Ocean on California's North Coast.","edges":["Glenn County","Humboldt County","Lake County (California)","Redwood National Park","Arcata","Eureka","Trinity County","Weaverville (California)","Tehama County","Red Bluff","Willows","Sonoma County","Napa Valley","California Wine Country","Armstrong Redwoods State Natural Reserve","Bodega Bay","Fort Ross","North Bay (Bay Area)"]},"Mendoza":{"title":"Mendoza","lat":-32.8833,"lng":-68.8167,"byline":"Mendoza is a city in western Argentina, in the desert Cuyo region.","edges":["Santiago"]},"Mengla":{"title":"Mengla","lat":21.4667,"lng":101.55,"byline":"Mengla (Chinese: 勐腊, Lü: ᦵᦙᦲᧂ ᦟᦱᧉ) is a city in Xishuangbanna.","edges":["Jinghong","Luang Namtha","Muang Xay","Luang Prabang","Xishuangbanna","Kunming","Yuanyang","Northern Laos"]},"Menlo Park":{"title":"Menlo Park","lat":37.454167,"lng":-122.178611,"byline":"Menlo Park is a suburban, tree-lined community in San Mateo County midway between the major cities of San Francisco and San Jose.","edges":["Silicon Valley","San Francisco","Palo Alto","Woodside"]},"Menomonie":{"title":"Menomonie","lat":44.879167,"lng":-91.918056,"byline":"For the town in the Upper Peninsula of Michigan, see Menominee. Menomonie is a city in Wisconsin.","edges":["Altoona (Wisconsin)","Eau Claire (Wisconsin)","Twin Cities","Minneapolis","Saint Paul","Minnesota"]},"Mentawai Islands":{"title":"Mentawai Islands","lat":-2.18,"lng":99.65,"byline":"The Mentawai islands are a chain of islands in Indonesia off the western coast of Sumatra, recognized as having some of the most perfect surfing breaks in the world.","edges":["Bungus Bay","Padang"]},"Menton":{"title":"Menton","lat":43.775,"lng":7.5,"byline":"Menton (Italian: Mentone) is \"The Lemon Festival Capital of the World\".","edges":["Monaco","Ventimiglia","Nice","Sospel","Albenga"]},"Mentor":{"title":"Mentor","lat":41.691111,"lng":-81.341944,"byline":"Mentor is a city in Lake County, Ohio.","edges":["Cleveland"]},"Menzies":{"title":"Menzies","lat":-29.6881,"lng":121.0369,"byline":"Menzies is a small Western Australian town that has endured more than 100 years of decline after its gold rush era boom to retain a distinctive impression of the Goldfields' fickle fortunes.","edges":["Kalgoorlie-Boulder","Leonora"]},"Menorca":{"title":"Menorca","lat":39.741,"lng":3.877,"byline":"Menorca (Minorca) is the second largest of the Balearic Islands, located to the northeast of Mallorca and is the least overrun and most tranquil of the Balearics.","edges":["Valencian Community"]},"Meningie":{"title":"Meningie","lat":-35.68833,"lng":139.33778,"byline":"Meningie is a town on the south-east side of Lake Albert in South Australia.","edges":["Adelaide"]},"Mentone":{"title":"Mentone","lat":41.1737,"lng":-86.0386,"byline":"Mentone is a small town in western Kosciusko County in Northern Indiana.","edges":["Rochester (Indiana)"]},"Menai Bridge":{"title":"Menai Bridge","lat":53.2259,"lng":-4.1633,"byline":"Menai Bridge (Officially in Welsh: Porthaethwy, but more usually Y Borth) is a town on the Isle of Anglesey over the Menai Straits from Bangor.","edges":["Llanfairpwllgwyngyll","Beaumaris","Church Bay (Anglesey)"]},"Menthon St. Bernard":{"title":"Menthon St. Bernard","lat":45.86,"lng":6.196,"byline":"Menthon St. Bernard is a small resort town in Haute-Savoie.","edges":["Annecy"]},"Mengshan":{"title":"Mengshan","lat":24.2031,"lng":110.52155,"byline":"Mengshan (蒙山) is a county in Central Guangxi.","edges":["Wuzhou","Guilin","Hezhou","Liuzhou"]},"Menindee":{"title":"Menindee","lat":-32.39154,"lng":142.42029,"byline":"Menindee is a minor town (population 537 in 2021) in the Far West region of New South Wales.","edges":["Broken Hill","Adelaide","Mildura","Mungo National Park","Pooncarie","Kinchega National Park"]}}