{"Niagara County":{"title":"Niagara County","lat":43.2,"lng":-78.75,"byline":"Niagara County is in the Niagara Frontier region of New York.","edges":["Buffalo","Orleans County (New York)"]},"Niagara Falls":{"title":"Niagara Falls","lat":43.08,"lng":-79.071,"byline":"Niagara Falls is a popular, though often tacky and touristy honeymoon destination on the USA-Canada border, approximately midway between Lake Erie and Lake Ontario.","edges":["Chautauqua County","Ellicottville","Lockport","Northeast Ohio","Southern Tier","Thorold"]},"Niagara Falls (New York)":{"title":"Niagara Falls (New York)","lat":43.095503,"lng":-79.055847,"byline":"Niagara Falls is in the Niagara Frontier region of New York state.","edges":["Ashtabula County","Buffalo","Clarence (New York)","London (Ontario)","Niagara Falls (Ontario)","Niagara-on-the-Lake","Lewiston (New York)","Northtowns","Orleans County (New York)","Rochester (New York)"]},"Niagara Falls (Ontario)":{"title":"Niagara Falls (Ontario)","lat":43.107,"lng":-79.064,"byline":"Niagara Falls, Ontario, is the self-proclaimed \"Honeymoon Capital of the World\".","edges":["Buffalo","Burlington (Ontario)","Hamilton (Ontario)","Lincoln (Ontario)","London (Ontario)","New York (state)","Niagara Falls (New York)","Niagara-on-the-Lake","Toronto","Region of Waterloo (Ontario)","St. Catharines","Waterloo (Ontario)","Welland"]},"Niagara Frontier":{"title":"Niagara Frontier","lat":42.87,"lng":-78.33,"byline":"The Niagara Frontier region of New York State consists of 5 counties near the Great Lakes of Erie and Ontario, just across the Niagara River from the Canadian province of Ontario and its Niagara Peninsula region.","edges":["Fort Erie","Finger Lakes"]},"Niagara-on-the-Lake":{"title":"Niagara-on-the-Lake","lat":43.255278,"lng":-79.071667,"byline":"Niagara-on-the-Lake is a town of 19,000 people (2021) in the Niagara Region of Ontario.","edges":["Buffalo","Burlington (Ontario)","Fort Erie","Hamilton (Ontario)","Lincoln (Ontario)","Niagara Falls (New York)","Niagara Falls (Ontario)","Toronto","Kitchener","Stratford (Ontario)","New York (state)","St. Catharines","Welland","Youngstown (New York)"]},"Niagara Peninsula":{"title":"Niagara Peninsula","lat":43,"lng":-79.5,"byline":"The  Niagara Peninsula is in Ontario's Golden Horseshoe, encompassing most of the city of Hamilton and all of Niagara Region.","edges":["Buffalo","Burlington (Ontario)","Toronto","Waterloo (Ontario)","Stratford (Ontario)","New York (state)","Region of Waterloo (Ontario)","Rockwood Park","Southwestern Ontario"]},"Niamey":{"title":"Niamey","lat":13.521389,"lng":2.105278,"byline":"Niamey, the capital of Niger, is a calm, fairly modern city of around 1.3 million (2020) on the banks of the Niger River surrounded by the Tillaberi region in the far southwest of Niger.","edges":["Koure","Baleyara","W National Park"]},"Nias":{"title":"Nias","lat":1.083333,"lng":97.583333,"byline":"Nias (or Pulau Nias, Nias Island) is an island the Indian Ocean off North Sumatra.","edges":["Banyak Islands","Padang Sidempuan","Sibolga"]}}