{"Nicaragua":{"title":"Nicaragua","lat":13,"lng":-85,"byline":"Nicaragua is the largest country in Central America by area and the least densely populated.","edges":["Costa Rica","León (Nicaragua)","Los Chiles (Costa Rica)","Mesoamerican Barrier Reef","Tegucigalpa"]},"Nice":{"title":"Nice","lat":43.7034,"lng":7.2663,"byline":"Nice (pronounced like the English word \"niece\") is a large city in France on the French Riviera.","edges":["Antibes","Cannes","Corsica","Fayence","Monaco","Néoules","Cagnes-sur-Mer","Saint-Tropez","Villefranche-sur-Mer","Menton","Ventimiglia","Vence","Saint-Paul de Vence","Saint-Jean-Cap-Ferrat","Liguria","Sanremo","Èze","Annot","Verdon Gorge","Toulon","Seborga","Peillon"]},"Nicolosi":{"title":"Nicolosi","lat":37.6167,"lng":15.0167,"byline":"Nicolosi is a town in Sicily near Mount Etna.","edges":["Catania"]},"Nicosia":{"title":"Nicosia","lat":35.166667,"lng":33.366667,"byline":"Nicosia (Greek: Λευκωσία; Turkish: Lefkoşa) is the capital of Cyprus and is the largest city by far.","edges":["Northern Cyprus","Nicosia (North)","Ayia Napa","Larnaca","Paphos","Limassol"]},"Nicosia (North)":{"title":"Nicosia (North)","lat":35.1987,"lng":33.3556,"byline":"North Nicosia (Turkish: Lefkoşa) is the Turkish Cypriot side of the divided city of Nicosia, and the capital of Northern Cyprus.","edges":["Nicosia"]},"Nicoya Peninsula":{"title":"Nicoya Peninsula","lat":10,"lng":-85.4166667,"byline":"Nicoya Peninsula (Spanish: Península de Nicoya) is a region in Costa Rica.","edges":["Guanacaste","Tamarindo"]},"Nichinan":{"title":"Nichinan","lat":31.602074,"lng":131.378926,"byline":"Nichinan (日南市) is a small city in southern Miyazaki prefecture.","edges":["Miyazaki","Sakaiminato","Kushima","Miyakonojo"]},"Nicholasville":{"title":"Nicholasville","lat":37.880556,"lng":-84.573056,"byline":"Nicholasville is a city of 31,000 (2019) in Jessamine County in the Bluegrass Region.","edges":["Lexington (Kentucky)"]}}