{"Nova Gorica":{"title":"Nova Gorica","lat":45.9667,"lng":13.65,"byline":"Nova Gorica is a town in Slovenia on the Italian border.","edges":["Sežana","Lipica","Bled","Triglav National Park","Venice","Ljubljana","Trieste"]},"Nova Iguaçu":{"title":"Nova Iguaçu","lat":-22.758889,"lng":-43.450833,"byline":"Nova Iguaçu is a city in Baixada Fluminense, in the metro area of Rio de Janeiro, state of Rio de Janeiro.","edges":["Queimados","Japeri","Paracambi","Seropédica","Mesquita","Nilópolis","Belford Roxo","São João de Meriti","Duque de Caxias","Rio de Janeiro"]},"Novalja":{"title":"Novalja","lat":44.55,"lng":14.8833,"byline":"Novalja is a city on the island of Pag.","edges":["Pag (town)"]},"Novara di Sicilia":{"title":"Novara di Sicilia","lat":38.0167,"lng":15.1333,"byline":"Novara di Sicilia is a town in the Province of Messina in the Sicily region of Italy.","edges":["Catania","Giardini Naxos","Taormina"]},"Nova Scotia":{"title":"Nova Scotia","lat":45.2167,"lng":-62.7,"byline":"Nova Scotia is one of Canada's Atlantic Provinces.","edges":["Bay of Fundy","Gaspé Peninsula","Moncton","New Brunswick","Sydney (Nova Scotia)","Yarmouth (Nova Scotia)","Prince Edward Island","Pictou","Sable Island"]},"Novato":{"title":"Novato","lat":38.1075,"lng":-122.5697,"byline":"Novato is a sprawling suburb in Marin County in the San Francisco Bay Area of California.","edges":["San Rafael","San Francisco","Napa","Sonoma Valley"]},"Nové Hrady":{"title":"Nové Hrady","lat":48.789631,"lng":14.778386,"byline":"Nové Hrady (German: Gratzen) is a small town in South Bohemia, Czech Republic on borders with Austria.","edges":["České Budějovice","Český Krumlov","Vienna"]},"Nové Město pod Smrkem":{"title":"Nové Město pod Smrkem","lat":50.9167,"lng":15.2333,"byline":"Nové Město pod Smrkem is a city in North Bohemia.","edges":["Teplice"]},"Novgorod":{"title":"Novgorod","lat":58.52203,"lng":31.275131,"byline":"Novgorod (Russian: Великий Новгород Velikii Novgorod) is one of the oldest cities in Russia.","edges":["Pskov","Saint Petersburg","Tver","Peterhof","Staraya Russa"]},"Novi":{"title":"Novi","lat":42.48056,"lng":-83.47556,"byline":"Novi is a city in Southeast Michigan.","edges":["Livonia","Northville"]},"Novi Sad":{"title":"Novi Sad","lat":45.25,"lng":19.85,"byline":"Novi Sad (Serbian: Нови Сад/Novi Sad) is the capital of Vojvodina, the northern Autonomous Province of Serbia, and the second largest city in Serbia.","edges":["Belgrade","Doboj","Sremski Karlovci","Palić","Subotica","Szeged","Pécs","Budapest","Timișoara","Vojvodina","Vršac","Vukovar"]},"Novokuznetsk":{"title":"Novokuznetsk","lat":53.75,"lng":87.1167,"byline":"Novokuznetsk (Russian: Новокузне́цк nuh-vuh-kooz-NYETSK) is a big metallurgy and coal city in the south of Kemerovo Oblast.","edges":["Kemerovo Oblast","Tomsk"]},"Novorossiysk":{"title":"Novorossiysk","lat":44.716667,"lng":37.766667,"byline":"Novorossiysk is a port city in Krasnodar Krai with population 230,000.","edges":["Crimea","Krasnodar","Anapa","Sochi"]},"Novosedly na Moravě":{"title":"Novosedly na Moravě","lat":48.8369,"lng":16.4936,"byline":"Novosedly na Moravě is a small town in the Moravian wine region of the Czech Republic, where you can take an amazing trip on horseback through the vineyards.","edges":["Mutěnice Wine Region","Brno"]},"Novosibirsk":{"title":"Novosibirsk","lat":55.0167,"lng":82.9333,"byline":"Novosibirsk (Russian: Новосиби́рск nuh-vuh-see-BEERSK) is a city of 1.6 million people (2018) in Novosibirsk Oblast, Siberia.","edges":["Berdsk","Kemerovo Oblast","Novosibirsk Oblast","Tomsk","Semey"]},"Novosibirsk Oblast":{"title":"Novosibirsk Oblast","lat":55.45,"lng":79.55,"byline":"Novosibirsk Oblast (Russian: Новосиби́рская о́бласть nuh-vuh-see-BEER-skuh-yuh OH-blust&apos;) is a region in Western Siberia, which borders Kazakhstan to the southwest, Omsk Oblast to the west, Tomsk Oblast to the north, Kemerovo Oblast to the east, and Altai Krai to the south.","edges":["Barnaul","Novosibirsk"]},"Nova Petrópolis":{"title":"Nova Petrópolis","lat":-29.375833,"lng":-51.111944,"byline":"Nova Petrópolis is a small historic and tourist town in the Brazilian state of Rio Grande do Sul.","edges":["Gramado"]},"Novafeltria":{"title":"Novafeltria","lat":43.894775,"lng":12.287722,"byline":"Novafeltria is in Emilia-Romagna, in Rimini province.","edges":["Pennabilli","San Marino","Rimini (province)"]},"Novi Pazar":{"title":"Novi Pazar","lat":43.15,"lng":20.51,"byline":"Novi Pazar is a city of 100,000 people (2011) in Podrinje.","edges":["Kraljevo","Mitrovica","Kosovo","Pristina","Skopje","North Macedonia"]},"Novo Selo":{"title":"Novo Selo","lat":41.405,"lng":22.884,"byline":"Novo Selo (Macedonian: Ново Село) is a municipality in the very southeastern corner of North Macedonia, bordering Bulgaria to the east and Greece to the south.","edges":["Strumica","Bulgaria"]},"Novohrad":{"title":"Novohrad","lat":48.291,"lng":19.563,"byline":"Novohrad is a region in Central Slovakia, situated around the Ipeľ river (hence the alternative name Poiplie).","edges":["Nógrád County","Hungary"]},"Novo Brdo":{"title":"Novo Brdo","lat":42.60947,"lng":21.437288,"byline":"Novo Brdo is a town in the Gjilani district of eastern Kosovo.","edges":["Pristina","Gjilani"]}}