{"Research Triangle":{"title":"Research Triangle","lat":35.88,"lng":-78.79,"byline":"Sprawling in the heart of North Carolina's Piedmont, the Research Triangle is a metro area of about two million people.","edges":["Asheboro","Crystal Coast","Fayetteville (North Carolina)","North Carolina Mountains","Piedmont Triad","Charlotte Metro","Charlotte","Wilmington (North Carolina)","Kitty Hawk","Sandhills"]},"Resen":{"title":"Resen","lat":41.088888888889,"lng":21.012222222222,"byline":"Resen (Macedonian: Ресен) is a city in southwestern North Macedonia.","edges":["Brajčino","Kičevo","Ohrid","Prespa (North Macedonia)","Pelister National Park","Galičica National Park"]},"Resende":{"title":"Resende","lat":-22.468889,"lng":-44.446944,"byline":"Resende is a city in the state of Rio de Janeiro.","edges":["São Lourenço"]},"Reserva de la Biósfera Calakmul":{"title":"Reserva de la Biósfera Calakmul","lat":18.612,"lng":-89.548,"byline":"The Reserva de la Biósfera de Calakmul is in the state of Campeche in the Yucatán Peninsula.","edges":["Campeche","Chetumal","Escárcega","Villahermosa","Palenque","Edzna","Becan","Tenosique"]},"Resistencia":{"title":"Resistencia","lat":-27.451388888889,"lng":-58.986666666667,"byline":"Resistencia is a city in Chaco, Argentina.","edges":["Clorinda"]},"Reston":{"title":"Reston","lat":38.954444,"lng":-77.346389,"byline":"Reston is in Virginia, United States of America) and is 20 miles (32 km) west of Washington, D.C. The population of Reston is approximately 58,000 people (2010).","edges":["Chantilly (Virginia)","Washington, D.C."]},"Restonica Valley":{"title":"Restonica Valley","lat":42.2361,"lng":9.0361,"byline":"The Restonica Valley is in Upper Corsica.","edges":["Corte"]},"Reserva de la Biosfera Barranca de Metztitlán":{"title":"Reserva de la Biosfera Barranca de Metztitlán","lat":20.593,"lng":-98.787,"byline":"Reserva de la Biosfera Barranca de Metztitlán is a protected biosphere reserve in the state of Hidalgo, Mexico.","edges":["Huasca de Ocampo"]}}