{"Sete Cidades National Park":{"title":"Sete Cidades National Park","lat":-4.0833,"lng":-41.6667,"byline":"Sete Cidades National Park (Portuguese: Parque Nacional de Sete Cidades) is in Piauí, Brazil.","edges":["Piripiri","Teresina"]},"Setúbal":{"title":"Setúbal","lat":38.5333,"lng":-8.8833,"byline":"Setúbal is a city in Estremadura, Portugal, on the northern bank of the Sado River estuary.","edges":["Almada","Beja","Évora","Lisbon","Palmela","Grândola","Alcácer do Sal","Seixal"]},"Seto":{"title":"Seto","lat":35.2167,"lng":137.0833,"byline":"Seto (瀬戸) in Northern Aichi prefecture is synonymous with ceramics in Japan.","edges":["Nagakute","Toyota","Nagoya","Tajimi","Toki"]},"Seto Inland Sea":{"title":"Seto Inland Sea","lat":34.1667,"lng":133.3333,"byline":"The Seto Inland Sea (瀬戸内海 Seto Naikai) is the body of water between the Japanese islands of Honshu, Shikoku and Kyushu.","edges":["Hiroshima","Takamatsu"]},"Setti Fatma":{"title":"Setti Fatma","lat":31.2256,"lng":-7.6758,"byline":"Setti Fatma is a small village in the Ourika Valley in Morocco.","edges":["Marrakech"]},"Settle":{"title":"Settle","lat":54.07213,"lng":-2.28189,"byline":"Settle is a village in North Yorkshire in the Yorkshire Dales, with a population of 2714 in 2021.","edges":["Accrington","Hawes","Horton-in-Ribblesdale","Clapham"]},"Sete Cidades":{"title":"Sete Cidades","lat":37.8585162,"lng":-25.7941141,"byline":"Sete Cidades is a village on the Azores.","edges":["Ponta Delgada","Furnas"]}}