{"Tehachapi":{"title":"Tehachapi","lat":35.133,"lng":-118.44,"byline":"Tehachapi is a city in Kern County, California in a valley within the Tehachapi Mountains which separate the San Joaquin Valley from the Mojave Desert.","edges":["Bakersfield","Keene (California)","Mojave","San Joaquin Valley"]},"Tehama County":{"title":"Tehama County","lat":40.13,"lng":-122.23,"byline":"Tehama County is in the Shasta Cascades region of California.","edges":["Butte County","Glenn County","Mendocino County","Plumas County","Shasta County","Lassen Volcanic National Park","Oroville (California)","Willows","San Francisco","Oregon","Ukiah","Fort Bragg","Willits","Trinity County","Weaverville (California)"]},"Tehran":{"title":"Tehran","lat":35.701,"lng":51.378,"byline":"Tehran (also spelled Teheran) (Persian: تهران), is the capital city of Iran.","edges":["Borujerd","Kashan","Qom","Ramsar","Shemshak","Dizin"]},"Tehri":{"title":"Tehri","lat":30.38,"lng":78.48,"byline":"Tehri is in the Garhwal district of Uttarakhand state.","edges":["Gangotri","Srinagar"]},"Tehuacán":{"title":"Tehuacán","lat":18.4667,"lng":-97.4018,"byline":"Tehuacán is a good-size city of almost 300,000 people (2020) in Puebla (state).","edges":["Orizaba","Huautla"]}}