{"Teramo":{"title":"Teramo","lat":42.6667,"lng":13.7,"byline":"Teramo is the capital of the province of Teramo in the Italian region of Abruzzo.","edges":["Campli","Civitella del Tronto","L'Aquila","Frondarola","Valle San Giovanni"]},"Terceira":{"title":"Terceira","lat":38.733333333333,"lng":-27.246666666667,"byline":"Terceira is in the Azores archipelago, an autonomous region of Portugal, in the Atlantic Ocean.","edges":["Ponta Delgada","São Miguel"]},"Terebovlia":{"title":"Terebovlia","lat":49.3,"lng":25.7167,"byline":"Terebovlia (Ukrainian: Теребовля, also transliterated Terebovlya from Russian: Теребовля; Polish: Trembowla) is a town in the Ukrainian part of East Galicia.","edges":["Ternopil","Romania","Chernivtsi"]},"Terengganu":{"title":"Terengganu","lat":4.75,"lng":103,"byline":"Terengganu (also Trengganu) is a state on the eastern coast of Peninsular Malaysia in Malaysia.","edges":["Kelantan","Pahang","Kuantan"]},"Teresina":{"title":"Teresina","lat":-5.0949,"lng":-42.8042,"byline":"Teresina is the capital of the State of Piaui, Brazil.","edges":["Parnaíba","Sete Cidades National Park"]},"Termez":{"title":"Termez","lat":37.2333,"lng":67.2833,"byline":"Termez or Termiz is a city in Surkhandarya, Uzbekistan.","edges":["Bukhara","Mazar-e Sharif"]},"Ternate":{"title":"Ternate","lat":0.78333333333333,"lng":127.36666666667,"byline":"Ternate is an island in the province of North Maluku, part of the Maluku islands of Indonesia.","edges":["Ambon","Manado","Tidore","Morotai Island","Tomohon"]},"Terni":{"title":"Terni","lat":42.5667,"lng":12.6167,"byline":"Terni is in the Umbria region of Italy.","edges":["Spoleto","Rieti","Todi","Umbria"]},"Ternopil":{"title":"Ternopil","lat":49.5667,"lng":25.6,"byline":"Ternopil (Ukrainian: Тернопіль) is a city the Ukrainian part of East Galicia.","edges":["Ivano-Frankivsk","Terebovlia","Zhytomyr"]},"Terrace":{"title":"Terrace","lat":54.5164722222,"lng":-128.599722222,"byline":"Terrace is an inland city in the North Coast of British Columbia.","edges":["Smithers"]},"Terrace Bay":{"title":"Terrace Bay","lat":48.8,"lng":-87.1,"byline":"Terrace Bay, the \"Gem of the Northshore\", is a township in Northern Ontario with 1,500 residents (2021) that is 150 km² in size.","edges":["Marathon (Ontario)"]},"Terra Nova National Park":{"title":"Terra Nova National Park","lat":48.530556,"lng":-53.928056,"byline":"Terra Nova National Park is in Eastern Newfoundland.","edges":["Bonavista","Gander","Glovertown","Eastern Newfoundland","Gros Morne National Park","Bonavista Peninsula"]},"Teruel":{"title":"Teruel","lat":40.343611,"lng":-1.107222,"byline":"Teruel is the capital city of Teruel province in Aragon.","edges":["Zaragoza"]},"Terschelling":{"title":"Terschelling","lat":53.4036,"lng":5.35892,"byline":"Terschelling is one of the West Frisian Islands in the north of the Netherlands.","edges":["Texel","Vlieland","West Frisian Islands","Harlingen (Netherlands)","Franeker","Leeuwarden","Groningen","Western Netherlands","Amsterdam","Bolsward","De Fryske Marren"]},"Terezín":{"title":"Terezín","lat":50.5,"lng":14.15,"byline":"Terezín is a town in the Czech Republic with around 3,000 inhabitants.","edges":["Prague","Teplice","Litoměřice"]},"Terneuzen":{"title":"Terneuzen","lat":51.288,"lng":3.851,"byline":"Terneuzen is a municipality and city in the Dutch province of Zeeland.","edges":["Goes","Hulst"]},"Tervuren":{"title":"Tervuren","lat":50.82419,"lng":4.514,"byline":"Tervuren is a municipality in Flemish Brabant on the outskirts of the vast Sonian Forest, south-west of Brussels.","edges":["Brussels","Grimbergen","Kraainem","Leuven"]},"Ternate (Cavite)":{"title":"Ternate (Cavite)","lat":14.283333,"lng":120.716667,"byline":"Ternate is a municipality in Cavite, at the boundary with Batangas.","edges":["Batangas","Nasugbu","Lian","Calatagan"]},"Terjit":{"title":"Terjit","lat":20.25,"lng":-13.1,"byline":"Terjit (or Tergit) is a lush green oasis settlement in Saharan Mauritania.","edges":["Nouakchott","Azougi","Chinguetti","Atar"]}}