{"Tilarán":{"title":"Tilarán","lat":10.4667,"lng":-84.9667,"byline":"Tilarán is in Guanacaste, Costa Rica.","edges":["La Fortuna","Santa Elena (Costa Rica)","Monteverde and Santa Elena Cloud Forest Reserves"]},"Tilburg":{"title":"Tilburg","lat":51.555,"lng":5.0906,"byline":"Tilburg is a large city in southern Netherlands.","edges":["'s-Hertogenbosch","Breda","Eindhoven"]},"Tilcara":{"title":"Tilcara","lat":-23.5667,"lng":-65.3667,"byline":"Tilcara is a pleasant town (pueblo) in Jujuy in Argentina.","edges":["Humahuaca","Purmamarca","Villazón and La Quiaca","Uquía"]},"Tillamook":{"title":"Tillamook","lat":45.4553,"lng":-123.8425,"byline":"Tillamook is the county seat of Tillamook County, near the Northern Oregon Coast.","edges":["Aloha","Lincoln City","Portland (Oregon)","Tillamook State Forest","Seaside (Oregon)","Pacific City","Central Oregon Coast"]},"Tillamook State Forest":{"title":"Tillamook State Forest","lat":45.584,"lng":-123.559,"byline":"Tillamook State Forest is a state forest on the Northern Oregon Coast.","edges":["Tillamook"]},"Tillsonburg":{"title":"Tillsonburg","lat":42.8667,"lng":-80.7333,"byline":"Tillsonburg is a town of about 16,000 people (2016) in Southwestern Ontario, about 50 km south-east of London.","edges":["Stratford (Ontario)","London (Ontario)"]},"Tilos":{"title":"Tilos","lat":36.433333,"lng":27.366667,"byline":"Tilos  is a small island in Greece.","edges":["Rhodes"]}}