{"Vila do Conde":{"title":"Vila do Conde","lat":41.35,"lng":-8.75,"byline":"Vila do Conde is a city of 79,000 people (2011) in the Douro Litoral region of Northern Portugal.","edges":["Póvoa de Varzim","Porto"]},"Vilanculos":{"title":"Vilanculos","lat":-22,"lng":35.3166667,"byline":"Vilanculos  (Vilankulo) is the Mozambican capital of water sports.","edges":["Bazaruto Archipelago National Park","Chimoio","Inhassoro","Kruger National Park"]},"Vila Nova de Gaia":{"title":"Vila Nova de Gaia","lat":41.133333333333,"lng":-8.6166666666667,"byline":"Vila Nova de Gaia  is a city the Douro Litoral region of Northern Portugal, immediately facing Porto across the Duoro river.","edges":["Póvoa de Varzim","Porto","Santa Maria da Feira"]},"Vila Real":{"title":"Vila Real","lat":41.28,"lng":-7.8,"byline":"Vila Real is a city of 52,000 people (2011) the Trás-os-Montes e Alto Douro region in Northern Portugal.","edges":["Amarante","Braga","Chaves","Guimarães","Lamego","Minho","Alijó","Sabrosa","Peso da Régua","Armamar","Tabuaço","São João da Pesqueira","Freixo de Espada à Cinta","Vila Nova de Foz Côa"]},"Vila Velha (Espírito Santo)":{"title":"Vila Velha (Espírito Santo)","lat":-20.3364,"lng":-40.2936,"byline":"Vila Velha, meaning old village, is a city in the metropolitan region of Vitória.","edges":["Domingos Martins","Guarapari","Itaúnas","Minas Gerais","Rio de Janeiro (state)","Santa Teresa (Espírito Santo)","Vitória","Espírito Santo","Rio de Janeiro"]},"Viljandi":{"title":"Viljandi","lat":58.3667,"lng":25.6,"byline":"Viljandi is an ancient hilly city of 17,000 people (2019) in the South of Estonia.","edges":["East Estonia","North Estonia","Otepää","Tallinn","Tartu","Valga","Valka","Vidzeme","Soomaa National Park","Pärnu","Latvia","West Estonia and Islands"]},"Villa Carlos Paz":{"title":"Villa Carlos Paz","lat":-31.4,"lng":-64.5167,"byline":"Villa Carlos Paz is a tourist city in the northwest of the province of Cordoba Province, Argentina, in the region of the Sierras de Cordoba, more precisely in Puntilla Valley, along Don Roque dam.","edges":["Córdoba (city, Argentina)"]},"Villach":{"title":"Villach","lat":46.614722,"lng":13.846111,"byline":"Villach is a town in the Carinthia province of Austria.","edges":["Carinthia","Klagenfurt","Udine","Velden","Austria","Soča Valley","Slovenia","Italy","Ljubljana","Bovec","Salzburg (state)","Tyrol","Flachau","Jesenice"]},"Villa de Leyva":{"title":"Villa de Leyva","lat":5.633,"lng":-73.533,"byline":"Villa de Leyva is a charming old colonial city in the Boyacá region of Colombia.","edges":["Boyacá","Tunja","Ráquira"]},"Villafranca Tirrena":{"title":"Villafranca Tirrena","lat":38.2333,"lng":15.4333,"byline":"Villafranca Tirrena is in the province of Messina on the island of Sicily, Italy.","edges":["Messina","Milazzo","Aeolian Islands"]},"Village at Blue Mountain":{"title":"Village at Blue Mountain","lat":44.5,"lng":-80.3167,"byline":"Village at Blue Mountain is a city in the Blue Mountain part of Grey County just outside Collingwood (Ontario).","edges":["Barrie","Tobermory (Ontario)"]},"Villa Gesell":{"title":"Villa Gesell","lat":-37.2667,"lng":-56.9833,"byline":"Villa Gesell] is a beach city in the Buenos Aires province of Argentina.","edges":["Mar del Plata"]},"Villahermosa":{"title":"Villahermosa","lat":18,"lng":-92.8833,"byline":"Villahermosa is the capital city of the state of Tabasco.","edges":["Cardenás","Champotón","Ciudad del Carmen","Escárcega","Reserva de la Biósfera Calakmul","San Andrés Tuxtla","Campeche","Palenque","Guatemala","Comalcalco","Tapijulapa","Palizada"]},"Villa la Angostura":{"title":"Villa la Angostura","lat":-40.7833,"lng":-71.6667,"byline":"Villa la Angostura is a city in Neuquén.","edges":["Nahuel Huapi National Park","San Carlos de Bariloche","San Martin de los Andes"]},"Villa Las Estrellas":{"title":"Villa Las Estrellas","lat":-62.200417,"lng":-58.965278,"byline":"Villa Las Estrellas is a Chilean civilian settlement on King George Island, the largest of the South Shetland Islands off the Antarctic Peninsula.","edges":["Esperanza Base"]},"Villanueva de Sigena":{"title":"Villanueva de Sigena","lat":41.715277777778,"lng":-0.0088888888888889,"byline":"Villanueva de Sigena is a village of about 400 people (2018) in Aragon.","edges":["Huesca","Zaragoza"]},"Villa O'Higgins":{"title":"Villa O'Higgins","lat":-48.468333333333,"lng":-72.56,"byline":"Villa O'Higgins is a town of 600 people (2012) in Chilean Patagonia.","edges":["El Chalten"]},"Villarrica":{"title":"Villarrica","lat":-39.2666,"lng":-72.2166,"byline":"Villarrica is a town of 50,000 people (2012) in Araucanía.","edges":["Pucon","Valdivia"]},"Villa Unión":{"title":"Villa Unión","lat":-29.3,"lng":-68.2,"byline":"Villa Unión is a town in La Rioja, northwestern Argentina.","edges":["San José de Jáchal"]},"Villaviciosa":{"title":"Villaviciosa","lat":43.483333,"lng":-5.433333,"byline":"Villaviciosa is a town of 14,000 people (2018) in the autonomous community of Asturias, Spain.","edges":["Oviedo (Spain)"]},"Villavieja":{"title":"Villavieja","lat":3.2167,"lng":-75.2167,"byline":"Villavieja is a village in the Huila department of Colombia whose main interest is its proximity to the Tatacoa Desert.","edges":["Neiva"]},"Villazón and La Quiaca":{"title":"Villazón and La Quiaca","lat":-22.105555555556,"lng":-65.6,"byline":"The two border towns Villazón in Bolivia and La Quiaca in Argentina are a pair spreading across the two countries.","edges":["Jujuy","Sucre","Tupiza","Uyuni","Humahuaca","Salta","Tilcara"]},"Villefranche-sur-Mer":{"title":"Villefranche-sur-Mer","lat":43.7,"lng":7.3,"byline":"Villefranche-sur-Mer is a small beach resort and residential town (population 5,000 in 2017) on the French Riviera.","edges":["Nice"]},"Villers-la-Ville":{"title":"Villers-la-Ville","lat":50.583333,"lng":4.533333,"byline":"Villers-la-Ville is a historic town in the Walloon province of Walloon Brabant in Belgium.","edges":["Gembloux"]},"Vilnius":{"title":"Vilnius","lat":54.6833,"lng":25.2833,"byline":"Vilnius is the capital and largest city of Lithuania.","edges":["Kaunas","Kurzeme","Riga"]},"Vilsandi National Park":{"title":"Vilsandi National Park","lat":58.35599,"lng":21.93489,"byline":"Vilsandi National Park is on and outside Saaremaa, Estonia's largest island.","edges":["Saaremaa","Hiiumaa","Muhu","Pärnu"]},"Vilvoorde":{"title":"Vilvoorde","lat":50.9167,"lng":4.4,"byline":"Vilvoorde is a city of 44,000 inhabitants in the province of Flemish Brabant in Belgium.","edges":["Grimbergen","Brussels"]},"Vils in Tirol":{"title":"Vils in Tirol","lat":47.549444444444,"lng":10.63,"byline":"Vils is a small town in Tyrol.","edges":["Füssen","Pinswang","Reutte","Innsbruck","Munich","Augsburg"]},"Villa Rica":{"title":"Villa Rica","lat":-10.737693,"lng":-75.271418,"byline":"Villa Rica is in Peru.","edges":["La Merced","Oxapampa","Pichanaki"]},"Vilonia":{"title":"Vilonia","lat":35.08367,"lng":-92.20774,"byline":"Vilonia is in Central Arkansas.","edges":["Conway (Arkansas)"]},"Villingen-Schwenningen":{"title":"Villingen-Schwenningen","lat":48.059,"lng":8.496,"byline":"Villingen-Schwenningen is a twin town at the east side of the Black Forest (Schwarzwald) in Baden-Württemberg.","edges":["Freiburg","Rottweil","Tuttlingen","Triberg Im Schwarzwald","Titisee-Neustadt"]},"Vilanova i la Geltrú":{"title":"Vilanova i la Geltrú","lat":41.224,"lng":1.726,"byline":"Vilanova i la Geltrú is a city in Barcelona province.","edges":["Sitges","Barcelona"]},"Vila do Bispo":{"title":"Vila do Bispo","lat":37.0825,"lng":-8.9119,"byline":"Vila do Bispo is a town and municipality in Portugal's Algarve.","edges":["Sagres"]},"Vilaflor":{"title":"Vilaflor","lat":28.1588,"lng":-16.6378,"byline":"Vilaflor is a town on the flanks of El Teide on Tenerife, the largest of the Canary Islands.","edges":["Teide National Park","Granadilla de Abona"]},"Vila Nova de Foz Côa":{"title":"Vila Nova de Foz Côa","lat":41.083333,"lng":-7.133333,"byline":"Vila Nova de Foz Côa is a town of 7,300 people (2011) in Alto Douro wine region of Trás-os-Montes e Alto Douro, northern Portugal.","edges":["Guarda","Alijó","Peso da Régua","Vila Real","Pinhel"]},"Vila Viçosa":{"title":"Vila Viçosa","lat":38.75,"lng":-7.4333,"byline":"Vila Viçosa is a town in Alto Alentejo, Portugal.","edges":["Elvas","Estremoz"]},"Vila Franca de Xira":{"title":"Vila Franca de Xira","lat":38.95,"lng":-8.9833,"byline":"Vila Franca de Xira is a city and municipality in Ribatejo, Portugal.","edges":["Oeste"]},"Villa El Chocón":{"title":"Villa El Chocón","lat":-39.26,"lng":-68.78,"byline":"Villa El Chocón is a small town in Neuquén province in Argentina.","edges":["Neuquén (city)"]},"Villanterio":{"title":"Villanterio","lat":45.2167,"lng":9.3667,"byline":"Villanterio is in Southern Lombardy.","edges":["Lodi (Lombardy)","Pavia"]},"Vilano Beach":{"title":"Vilano Beach","lat":29.9162,"lng":-81.2942,"byline":"Vilano Beach is a small beachside town in the First Coast region of Florida near St. Augustine.","edges":["St. Augustine","Ponte Vedra Beach","Butler Beach"]}}