{"Vincennes":{"title":"Vincennes","lat":38.678333,"lng":-87.516111,"byline":"Vincennes is a city in Southwestern Indiana.","edges":["Henderson (Kentucky)"]},"Vinh":{"title":"Vinh","lat":18.6667,"lng":105.6667,"byline":"Vinh is a major city in Central Coast Vietnam.","edges":["Central Laos","Phonsavan","Hanoi","Dong Hoi","Hue"]},"Vinhedo":{"title":"Vinhedo","lat":-23.029722,"lng":-46.975278,"byline":"Vinhedo is a city in the Campinas Region of São Paulo state.","edges":["São Paulo"]},"Vinh Long":{"title":"Vinh Long","lat":10.25,"lng":105.9667,"byline":"Vĩnh Long is the capital of Vinh Long Province in southern Vietnam.","edges":["Ben Tre","Can Tho","Tra Vinh"]},"Vinton":{"title":"Vinton","lat":37.278056,"lng":-79.895278,"byline":"Vinton is a city in Virginia.","edges":["Roanoke"]},"Vinnytsia":{"title":"Vinnytsia","lat":49.233333,"lng":28.483333,"byline":"Vinnytsia (Ukrainian: Вінниця, also transliterated Vinnitsa from Russian: Винница) is a city in Central Ukraine, the administrative center of the Vinnytsia region.","edges":["Kyiv","Zhytomyr","Uman","Khmelnytskyi","Stina"]},"Vinicunca":{"title":"Vinicunca","lat":-13.870227,"lng":-71.302951,"byline":"Vinicunca (also spelled Winikunka) is an impressive mountain range in the Southern Sierra of Peru, perched at an elevation of over 5,200 meters.","edges":["Cuzco"]}}