{"Zhalong National Nature Reserve":{"title":"Zhalong National Nature Reserve","lat":47.2,"lng":124.25,"byline":"Zhalong National Nature Reserve (扎龙自然保护区) is in Heilongjiang province.","edges":["Harbin"]},"Zhangjiajie":{"title":"Zhangjiajie","lat":29.1232,"lng":110.4837,"byline":"Zhangjiajie (张家界 Zhāngjiājiè) is a small provincial city in northwestern Hunan Province, China.","edges":["Changde","Changsha","Fenghuang"]},"Zhangye":{"title":"Zhangye","lat":38.93,"lng":100.451,"byline":"Zhangye (张掖; Zhāngyè) is a city in Gansu Province with striking and beautiful mountain scenery nearby.","edges":["Jiuquan","Minle"]},"Zhangzhou":{"title":"Zhangzhou","lat":24.5167,"lng":117.65,"byline":"Zhangzhou (漳州; Chiang-chiu in Minnan, Zhāngzhōu in Mandarin) is a city of 4.8 million people (2010) in the west of Fujian Province in China.","edges":["Fujian Tulou","Xiamen","Gulangyu","Mount Wuyi","Longyan","Haicang","Liu'ao"]},"Zhanjiang":{"title":"Zhanjiang","lat":21.2,"lng":110.4,"byline":"Zhanjiang (湛江; Jaamgōng in Cantonese, Zhàn​jiāng in Mandarin​) is a port city of 1.6 million people (2010) in the western part of Guangdong Province in China.","edges":["Hainan","South China","Donghai Island","Naozhou Island","Guangzhou","Zhuhai","Haikou","Sanya","Guilin"]},"Zhaoqing":{"title":"Zhaoqing","lat":23.05,"lng":112.4667,"byline":"Zhaoqing (肇庆; Zhào​qìng​) is a city near Guangzhou in Guangdong Province in China.","edges":["Kaiping"]},"Zhaoxing":{"title":"Zhaoxing","lat":25.9098,"lng":109.1749,"byline":"Zhaoxing is a town in Southeastern Guizhou.","edges":["Chengyang","Sanjiang","Guilin"]},"Zhangguying village":{"title":"Zhangguying village","lat":29.00626,"lng":113.48145,"byline":"Zhangguying Village (simplified Chinese: 张谷英村; traditional Chinese: 張谷英村; pinyin: zhāng-gǔ-yīng cūn) is administered by Yueyang prefecture, Hunan province, and it's 80 kilometers south east of Yueyang city.","edges":["Yueyang"]}}